# 
# Header Description:
# 
# Version: v2.0.0.1 Platform: 8.1.0 Manufacturer: LGE Model: Nexus 5X
# 
# Raw,ElapsedRealtimeMillis,TimeNanos,LeapSecond,TimeUncertaintyNanos,FullBiasNanos,BiasNanos,BiasUncertaintyNanos,DriftNanosPerSecond,DriftUncertaintyNanosPerSecond,HardwareClockDiscontinuityCount,Svid,TimeOffsetNanos,State,ReceivedSvTimeNanos,ReceivedSvTimeUncertaintyNanos,Cn0DbHz,PseudorangeRateMetersPerSecond,PseudorangeRateUncertaintyMetersPerSecond,AccumulatedDeltaRangeState,AccumulatedDeltaRangeMeters,AccumulatedDeltaRangeUncertaintyMeters,CarrierFrequencyHz,CarrierCycles,CarrierPhase,CarrierPhaseUncertainty,MultipathIndicator,SnrInDb,ConstellationType,AgcDb,CarrierFrequencyHz
# 
# Fix,Provider,Latitude,Longitude,Altitude,Speed,Accuracy,(UTC)TimeInMs
# 
# Nav,Svid,Type,Status,MessageId,Sub-messageId,Data(Bytes)
# 
Fix,gps,59.942215,30.294824,22.000000,0.000000,3.000000,1510566834000
Raw,154895685,0,,38.064743421273306,-1194602051409351424,,,,,4696,1,0.0,15,122051340685534,13,31.3,-195.08908081054688,0.3865000009536743,0,0.0,0.0,,,,,0,,1,,
Raw,154895686,0,,38.064743421273306,-1194602051409351424,,,,,4696,8,0.0,15,122051328856367,21,26.3,700.9467163085938,0.5885000228881836,0,0.0,0.0,,,,,0,,1,,
Raw,154895686,0,,38.064743421273306,-1194602051409351424,,,,,4696,10,0.0,15,122051330601454,21,26.2,642.488525390625,0.5914999842643738,0,0.0,0.0,,,,,0,,1,,
Raw,154895687,0,,38.064743421273306,-1194602051409351424,,,,,4696,11,0.0,15,122051340297479,9,35.8,137.44911193847656,0.26649999618530273,0,0.0,0.0,,,,,0,,1,,
Raw,154895687,0,,38.064743421273306,-1194602051409351424,,,,,4696,14,0.0,15,122051338739040,17,28.8,-124.80410766601562,0.4684999883174896,0,0.0,0.0,,,,,0,,1,,
Raw,154895688,0,,38.064743421273306,-1194602051409351424,,,,,4696,17,0.0,15,122051329202197,17,28.7,-484.6399230957031,0.4699999988079071,0,0.0,0.0,,,,,0,,1,,
Raw,154895688,0,,38.064743421273306,-1194602051409351424,,,,,4696,22,0.0,15,122051337037322,16,29.2,-430.5584716796875,0.4819999933242798,0,0.0,0.0,,,,,0,,1,,
Raw,154895688,0,,38.064743421273306,-1194602051409351424,,,,,4696,31,0.0,15,122051326218427,19,27.8,-686.7984008789062,0.5055000185966492,0,0.0,0.0,,,,,0,,1,,
Raw,154895689,0,,38.064743421273306,-1194602051409351424,,,,,4696,32,0.0,15,122051338425864,13,31.8,158.80006408691406,0.3935000002384186,0,0.0,0.0,,,,,0,,1,,
NMEA,$GPGSV,4,1,13,01,63,271,31,08,15,201,26,10,19,081,26,11,58,232,36*78,1510566833306
NMEA,$GPGSV,4,2,13,14,57,123,29,17,19,323,29,22,47,248,29,31,03,133,28*7A,1510566833306
NMEA,$GPGSV,4,3,13,32,54,085,32,03,24,254,,19,02,337,,24,09,016,*73,1510566833306
NMEA,$GPGSV,4,4,13,28,08,285,*46,1510566833306
NMEA,$GLGSV,3,1,10,86,07,167,14,73,16,071,17,80,23,018,22,65,32,234,23*6F,1510566833306
NMEA,$GLGSV,3,2,10,88,52,305,31,87,57,201,38,81,07,331,17,71,39,056,28*6F,1510566833306
NMEA,$GLGSV,3,3,10,72,83,223,31,79,02,324,*62,1510566833306
NMEA,$GPGSA,A,3,01,08,10,11,14,17,22,31,32,,,,1.0,0.7,0.7*3B,1510566833307
NMEA,$GPVTG,,T,,M,0.0,N,0.0,K,D*26,1510566833307
NMEA,$GPRMC,095354,A,5956.532907,N,03017.689466,E,0.0,,131117,8.4,E,D*35,1510566833307
NMEA,$GPGGA,095354,5956.532907,N,03017.689466,E,2,09,0.7,4.0,M,18.0,M,,*4F,1510566833307
Fix,gps,59.942214,30.294823,22.000000,0.000000,3.000000,1510566835000
Raw,154896683,0,,44.451844587456435,-1194602052409351424,,,,,4697,1,0.0,15,122052340686182,10,34.8,-195.90733337402344,0.2865000069141388,0,0.0,0.0,,,,,0,,1,,
Raw,154896684,0,,44.451844587456435,-1194602052409351424,,,,,4697,8,0.0,15,122052328854057,13,31.4,699.9381713867188,0.398499995470047,0,0.0,0.0,,,,,0,,1,,
Raw,154896684,0,,44.451844587456435,-1194602052409351424,,,,,4697,10,0.0,15,122052330599311,17,28.6,641.77490234375,0.4715000092983246,0,0.0,0.0,,,,,0,,1,,
Raw,154896685,0,,44.451844587456435,-1194602052409351424,,,,,4697,11,0.0,15,122052340297017,9,35.5,136.8021240234375,0.26649999618530273,0,0.0,0.0,,,,,0,,1,,
Raw,154896685,0,,44.451844587456435,-1194602052409351424,,,,,4697,14,0.0,15,122052338739455,16,29.8,-125.49867248535156,0.4284999966621399,0,0.0,0.0,,,,,0,,1,,
Raw,154896686,0,,44.451844587456435,-1194602052409351424,,,,,4697,17,0.0,15,122052329203865,19,27.9,-485.23931884765625,0.5099999904632568,0,0.0,0.0,,,,,0,,1,,
Raw,154896686,0,,44.451844587456435,-1194602052409351424,,,,,4697,22,0.0,15,122052337038742,16,29.2,-431.0342102050781,0.4819999933242798,0,0.0,0.0,,,,,0,,1,,
Raw,154896687,0,,44.451844587456435,-1194602052409351424,,,,,4697,31,0.0,15,122052326220641,14,30.0,-687.8355102539062,0.4255000054836273,0,0.0,0.0,,,,,0,,1,,
Raw,154896687,0,,44.451844587456435,-1194602052409351424,,,,,4697,32,0.0,15,122052338425329,13,31.6,157.820068359375,0.3935000002384186,0,0.0,0.0,,,,,0,,1,,
NMEA,$GPGSV,4,1,13,01,63,271,35,08,15,201,31,10,19,081,29,11,58,232,36*75,1510566834309
NMEA,$GPGSV,4,2,13,14,57,123,30,17,19,323,28,22,47,248,29,31,03,133,30*7A,1510566834309
NMEA,$GPGSV,4,3,13,32,54,085,32,03,24,254,,19,02,337,,24,09,016,*73,1510566834309
NMEA,$GPGSV,4,4,13,28,08,285,*46,1510566834309
NMEA,$GLGSV,3,1,10,86,07,167,25,73,16,071,23,80,23,018,20,65,32,234,25*6E,1510566834310
NMEA,$GLGSV,3,2,10,88,52,305,28,87,57,201,37,81,07,331,18,71,39,056,27*68,1510566834310
NMEA,$GLGSV,3,3,10,72,83,223,32,79,02,324,*61,1510566834310
NMEA,$GPGSA,A,3,01,08,10,11,14,17,22,31,32,,,,0.9,0.6,0.6*33,1510566834311
NMEA,$GPVTG,,T,,M,0.0,N,0.0,K,D*26,1510566834311
NMEA,$GPRMC,095355,A,5956.532846,N,03017.689402,E,0.0,,131117,8.4,E,D*32,1510566834311
NMEA,$GPGGA,095355,5956.532846,N,03017.689402,E,2,09,0.6,4.0,M,18.0,M,,*49,1510566834311
Fix,gps,59.942213,30.294822,22.000000,0.000000,3.000000,1510566836000
Raw,154897673,0,,47.16445255326107,-1194602053409351424,,,,,4698,1,0.0,15,122053340686793,10,34.7,-194.84169006347656,0.2865000069141388,0,0.0,0.0,,,,,0,,1,,
Raw,154897673,0,,47.16445255326107,-1194602053409351424,,,,,4698,3,0.0,15,122053332144029,318,23.9,-627.2365112304688,0.9544999599456787,0,0.0,0.0,,,,,0,,1,,
Raw,154897674,0,,47.16445255326107,-1194602053409351424,,,,,4698,8,0.0,15,122053328851732,13,31.4,701.1370239257812,0.398499995470047,0,0.0,0.0,,,,,0,,1,,
Raw,154897675,0,,47.16445255326107,-1194602053409351424,,,,,4698,10,0.0,15,122053330597162,16,29.4,643.0403442382812,0.4715000092983246,0,0.0,0.0,,,,,0,,1,,
Raw,154897675,0,,47.16445255326107,-1194602053409351424,,,,,4698,11,0.0,15,122053340296555,9,35.3,137.991455078125,0.2865000069141388,0,0.0,0.0,,,,,0,,1,,
Raw,154897675,0,,47.16445255326107,-1194602053409351424,,,,,4698,14,0.0,15,122053338739840,19,27.1,-124.54720306396484,0.5385000109672546,0,0.0,0.0,,,,,0,,1,,
Raw,154897676,0,,47.16445255326107,-1194602053409351424,,,,,4698,17,0.0,15,122053329205475,16,29.1,-484.364013671875,0.4699999988079071,0,0.0,0.0,,,,,0,,1,,
Raw,154897676,0,,47.16445255326107,-1194602053409351424,,,,,4698,22,0.0,15,122053337040197,16,29.2,-430.2444763183594,0.4819999933242798,0,0.0,0.0,,,,,0,,1,,
Raw,154897677,0,,47.16445255326107,-1194602053409351424,,,,,4698,31,0.0,15,122053326222969,14,30.4,-686.6366577148438,0.4255000054836273,0,0.0,0.0,,,,,0,,1,,
Raw,154897677,0,,47.16445255326107,-1194602053409351424,,,,,4698,32,0.0,15,122053338424739,11,33.1,159.2282257080078,0.3634999990463257,0,0.0,0.0,,,,,0,,1,,
NMEA,$GPGSV,4,1,13,01,63,271,35,03,24,254,24,08,15,201,31,10,19,081,29*7E,1510566835311
NMEA,$GPGSV,4,2,13,11,58,232,35,14,57,123,27,17,19,323,29,22,47,248,29*76,1510566835312
NMEA,$GPGSV,4,3,13,31,03,133,30,32,54,085,33,19,02,337,,24,09,016,*77,1510566835312
NMEA,$GPGSV,4,4,13,28,08,285,*46,1510566835312
NMEA,$GLGSV,3,1,10,86,07,167,22,73,16,071,23,80,23,018,22,65,32,234,25*6B,1510566835312
NMEA,$GLGSV,3,2,10,88,52,305,27,87,57,201,37,81,07,331,20,71,39,056,27*6C,1510566835312
NMEA,$GLGSV,3,3,10,72,83,223,33,79,02,324,*60,1510566835312
NMEA,$GPGSA,A,3,01,03,08,10,11,14,17,22,31,32,,,0.9,0.6,0.6*30,1510566835314
NMEA,$GPVTG,,T,,M,0.0,N,0.0,K,D*26,1510566835315
NMEA,$GPRMC,095356,A,5956.532802,N,03017.689339,E,0.0,,131117,8.4,E,D*3E,1510566835315
NMEA,$GPGGA,095356,5956.532802,N,03017.689339,E,2,10,0.6,4.0,M,18.0,M,,*4D,1510566835315
Fix,gps,59.942213,30.294821,22.000000,0.000000,3.000000,1510566837000
Raw,154898687,0,,53.43342854757793,-1194602054409351424,,,,,4699,1,0.0,15,122054340687464,11,33.5,-194.61334228515625,0.30649998784065247,0,0.0,0.0,,,,,0,,1,,
Raw,154898689,0,,53.43342854757793,-1194602054409351424,,,,,4699,3,0.0,15,122054332146052,27,24.9,-627.6551513671875,0.6705000400543213,0,0.0,0.0,,,,,0,,1,,
Raw,154898690,0,,53.43342854757793,-1194602054409351424,,,,,4699,8,0.0,15,122054328849362,12,32.3,701.0989990234375,0.37849998474121094,0,0.0,0.0,,,,,0,,1,,
Raw,154898691,0,,53.43342854757793,-1194602054409351424,,,,,4699,10,0.0,15,122054330595035,17,28.9,642.8310546875,0.4715000092983246,0,0.0,0.0,,,,,0,,1,,
Raw,154898692,0,,53.43342854757793,-1194602054409351424,,,,,4699,11,0.0,15,122054340296096,6,38.2,138.1627197265625,0.2264999896287918,0,0.0,0.0,,,,,0,,1,,
Raw,154898692,0,,53.43342854757793,-1194602054409351424,,,,,4699,14,0.0,15,122054338740275,13,31.8,-124.32837677001953,0.37849998474121094,0,0.0,0.0,,,,,0,,1,,
Raw,154898693,0,,53.43342854757793,-1194602054409351424,,,,,4699,17,0.0,15,122054329207115,16,29.8,-484.37353515625,0.4300000071525574,0,0.0,0.0,,,,,0,,1,,
Raw,154898693,0,,53.43342854757793,-1194602054409351424,,,,,4699,22,0.0,15,122054337041605,11,33.0,-429.9495544433594,0.3619999885559082,0,0.0,0.0,,,,,0,,1,,
Raw,154898694,0,,53.43342854757793,-1194602054409351424,,,,,4699,31,0.0,15,122054326225227,11,33.8,-686.6271362304688,0.3154999911785126,0,0.0,0.0,,,,,0,,1,,
Raw,154898695,0,,53.43342854757793,-1194602054409351424,,,,,4699,32,0.0,15,122054338424235,10,34.0,159.19969177246094,0.3334999978542328,0,0.0,0.0,,,,,0,,1,,
NMEA,$GPGSV,4,1,13,01,63,271,34,03,24,254,25,08,15,201,32,10,19,081,29*7D,1510566836310
NMEA,$GPGSV,4,2,13,11,58,232,38,14,57,123,32,17,19,323,30,22,47,248,33*7C,1510566836310
NMEA,$GPGSV,4,3,13,31,03,133,34,32,54,085,34,19,02,337,,24,09,016,*74,1510566836310
NMEA,$GPGSV,4,4,13,28,08,285,*46,1510566836310
NMEA,$GLGSV,3,1,10,86,07,167,26,73,16,071,24,80,23,018,24,65,32,234,26*6D,1510566836310
NMEA,$GLGSV,3,2,10,88,52,305,30,87,57,201,40,81,07,331,18,71,39,056,25*63,1510566836310
NMEA,$GLGSV,3,3,10,72,83,223,35,79,02,324,*66,1510566836310
NMEA,$GPGSA,A,3,01,03,08,10,11,14,17,22,31,32,,,1.0,0.7,0.7*38,1510566836311
NMEA,$GPVTG,,T,,M,0.0,N,0.0,K,D*26,1510566836311
NMEA,$GPRMC,095357,A,5956.532770,N,03017.689280,E,0.0,,131117,8.4,E,D*36,1510566836311
NMEA,$GPGGA,095357,5956.532770,N,03017.689280,E,2,10,0.7,4.0,M,18.0,M,,*44,1510566836311
Fix,gps,59.942213,30.294820,22.000000,0.000000,4.000000,1510566838000
NMEA,$GPGSV,4,1,13,01,63,271,30,03,24,254,27,08,15,201,32,10,19,081,29*7B,1510566837314
Raw,154899709,0,,56.00594522547908,-1194602055409351424,,,,,4700,1,0.0,15,122055340688061,14,30.3,-194.82266235351562,0.4165000021457672,0,0.0,0.0,,,,,0,,1,,
Raw,154899709,0,,56.00594522547908,-1194602055409351424,,,,,4700,3,0.0,15,122055332148275,21,26.9,-628.0928344726562,0.5444999933242798,0,0.0,0.0,,,,,0,,1,,
Raw,154899710,0,,56.00594522547908,-1194602055409351424,,,,,4700,8,0.0,15,122055328847019,12,32.1,700.6613159179688,0.37849998474121094,0,0.0,0.0,,,,,0,,1,,
Raw,154899710,0,,56.00594522547908,-1194602055409351424,,,,,4700,10,0.0,15,122055330592877,16,29.0,642.2030639648438,0.4715000092983246,0,0.0,0.0,,,,,0,,1,,
Raw,154899711,0,,56.00594522547908,-1194602055409351424,,,,,4700,11,0.0,15,122055340295635,7,37.5,137.67747497558594,0.2264999896287918,0,0.0,0.0,,,,,0,,1,,
Raw,154899711,0,,56.00594522547908,-1194602055409351424,,,,,4700,14,0.0,15,122055338740669,11,33.0,-124.92779541015625,0.34849998354911804,0,0.0,0.0,,,,,0,,1,,
Raw,154899712,0,,56.00594522547908,-1194602055409351424,,,,,4700,17,0.0,15,122055329208745,17,28.6,-485.0585632324219,0.4699999988079071,0,0.0,0.0,,,,,0,,1,,
Raw,154899712,0,,56.00594522547908,-1194602055409351424,,,,,4700,22,0.0,15,122055337043055,11,33.0,-430.5489501953125,0.3619999885559082,0,0.0,0.0,,,,,0,,1,,
Raw,154899713,0,,56.00594522547908,-1194602055409351424,,,,,4700,31,0.0,15,122055326227525,11,33.3,-687.197998046875,0.34549999237060547,0,0.0,0.0,,,,,0,,1,,
Raw,154899713,0,,56.00594522547908,-1194602055409351424,,,,,4700,32,0.0,15,122055338423702,10,34.0,158.91424560546875,0.3334999978542328,0,0.0,0.0,,,,,0,,1,,
NMEA,$GPGSV,4,2,13,11,58,232,38,14,57,123,33,17,19,323,29,22,47,248,33*75,1510566837314
NMEA,$GPGSV,4,3,13,31,03,133,33,32,54,085,34,19,02,337,,24,09,016,*73,1510566837314
NMEA,$GPGSV,4,4,13,28,08,285,*46,1510566837314
NMEA,$GLGSV,3,1,10,86,07,167,24,73,16,071,24,80,23,018,21,65,32,234,27*6B,1510566837314
NMEA,$GLGSV,3,2,10,88,52,305,29,87,57,201,40,81,07,331,21,71,39,056,24*60,1510566837314
NMEA,$GLGSV,3,3,10,72,83,223,35,79,02,324,*66,1510566837315
NMEA,$GPGSA,A,3,01,03,08,10,11,14,17,22,31,32,,,0.9,0.6,0.6*30,1510566837317
NMEA,$GPVTG,,T,,M,0.0,N,0.0,K,D*26,1510566837317
NMEA,$GPRMC,095358,A,5956.532751,N,03017.689228,E,0.0,,131117,8.4,E,D*38,1510566837317
NMEA,$GPGGA,095358,5956.532751,N,03017.689228,E,2,10,0.6,4.0,M,18.0,M,,*4B,1510566837318
Fix,gps,59.942212,30.294820,22.000000,0.000000,4.000000,1510566839000
Raw,154900719,0,,62.53220635699108,-1194602056409351424,,,,,4701,1,0.0,15,122056340688812,11,33.9,-195.18423461914062,0.30649998784065247,0,0.0,0.0,,,,,0,,1,,
Raw,154900719,0,,62.53220635699108,-1194602056409351424,,,,,4701,3,0.0,15,122056332150366,27,24.6,-628.787353515625,0.6345000267028809,0,0.0,0.0,,,,,0,,1,,
Raw,154900720,0,,62.53220635699108,-1194602056409351424,,,,,4701,8,0.0,15,122056328844699,11,33.2,700.4044189453125,0.34849998354911804,0,0.0,0.0,,,,,0,,1,,
Raw,154900721,0,,62.53220635699108,-1194602056409351424,,,,,4701,10,0.0,15,122056330590760,27,24.9,641.765380859375,0.6315000057220459,0,0.0,0.0,,,,,0,,1,,
Raw,154900721,0,,62.53220635699108,-1194602056409351424,,,,,4701,11,0.0,15,122056340295165,7,37.1,137.45863342285156,0.24650000035762787,0,0.0,0.0,,,,,0,,1,,
Raw,154900722,0,,62.53220635699108,-1194602056409351424,,,,,4701,14,0.0,15,122056338741109,11,33.5,-125.10857391357422,0.31849998235702515,0,0.0,0.0,,,,,0,,1,,
Raw,154900723,0,,62.53220635699108,-1194602056409351424,,,,,4701,17,0.0,15,122056329210407,16,29.4,-484.8397521972656,0.4699999988079071,0,0.0,0.0,,,,,0,,1,,
Raw,154900723,0,,62.53220635699108,-1194602056409351424,,,,,4701,22,0.0,15,122056337044486,11,33.1,-430.8248596191406,0.3619999885559082,0,0.0,0.0,,,,,0,,1,,
Raw,154900723,0,,62.53220635699108,-1194602056409351424,,,,,4701,31,0.0,15,122056326229823,11,33.7,-687.4739379882812,0.3154999911785126,0,0.0,0.0,,,,,0,,1,,
Raw,154900724,0,,62.53220635699108,-1194602056409351424,,,,,4701,32,0.0,15,122056338423149,10,34.5,158.66685485839844,0.3135000169277191,0,0.0,0.0,,,,,0,,1,,
NMEA,$GPGSV,4,1,13,01,63,271,34,03,24,254,25,08,15,201,33,10,19,081,25*70,1510566838331
NMEA,$GPGSV,4,2,13,11,58,232,37,14,57,123,34,17,19,323,29,22,47,248,33*7D,1510566838332
NMEA,$GPGSV,4,3,13,31,03,133,34,32,54,085,35,19,02,337,,24,09,016,*75,1510566838332
NMEA,$GPGSV,4,4,13,28,08,285,*46,1510566838332
NMEA,$GLGSV,3,1,10,86,07,167,28,73,16,071,27,80,23,018,25,65,32,234,25*62,1510566838332
NMEA,$GLGSV,3,2,10,88,52,305,30,87,57,201,40,81,07,331,19,71,39,056,23*64,1510566838332
NMEA,$GLGSV,3,3,10,72,83,223,36,79,02,324,*65,1510566838332
NMEA,$GPGSA,A,3,01,03,08,10,11,14,17,22,31,32,,,0.9,0.6,0.6*30,1510566838334
NMEA,$GPVTG,,T,,M,0.0,N,0.0,K,D*26,1510566838335
NMEA,$GPRMC,095359,A,5956.532740,N,03017.689191,E,0.0,,131117,8.4,E,D*38,1510566838335
NMEA,$GPGGA,095359,5956.532740,N,03017.689191,E,2,10,0.6,4.0,M,18.0,M,,*4B,1510566838335
Raw,154901730,0,,61.795122746843845,-1194602057409351424,,,,,4702,1,0.0,15,122057340689492,9,35.5,-194.96539306640625,0.26649999618530273,0,0.0,0.0,,,,,0,,1,,
Raw,154901731,0,,61.795122746843845,-1194602057409351424,,,,,4702,3,0.0,15,122057332152513,19,27.3,-628.6066284179688,0.5444999933242798,0,0.0,0.0,,,,,0,,1,,
Raw,154901731,0,,61.795122746843845,-1194602057409351424,,,,,4702,8,0.0,15,122057328842365,10,34.1,700.6137084960938,0.31849998235702515,0,0.0,0.0,,,,,0,,1,,
Raw,154901732,0,,61.795122746843845,-1194602057409351424,,,,,4702,10,0.0,15,122057330588608,16,29.7,642.2506713867188,0.43150001764297485,0,0.0,0.0,,,,,0,,1,,
Raw,154901732,0,,61.795122746843845,-1194602057409351424,,,,,4702,11,0.0,15,122057340294722,7,37.2,137.85824584960938,0.24650000035762787,0,0.0,0.0,,,,,0,,1,,
Raw,154901733,0,,61.795122746843845,-1194602057409351424,,,,,4702,14,0.0,15,122057338741527,9,35.7,-124.86119842529297,0.2784999907016754,0,0.0,0.0,,,,,0,,1,,
Raw,154901735,0,,61.795122746843845,-1194602057409351424,,,,,4702,17,0.0,15,122057329212118,27,24.9,-484.8111877441406,0.6299999952316284,0,0.0,0.0,,,,,0,,1,,
Raw,154901735,0,,61.795122746843845,-1194602057409351424,,,,,4702,22,0.0,15,122057337045922,8,36.6,-430.45379638671875,0.2720000147819519,0,0.0,0.0,,,,,0,,1,,
Raw,154901736,0,,61.795122746843845,-1194602057409351424,,,,,4702,31,0.0,15,122057326232114,11,33.1,-687.2646484375,0.34549999237060547,0,0.0,0.0,,,,,0,,1,,
Raw,154901736,0,,61.795122746843845,-1194602057409351424,,,,,4702,32,0.0,15,122057338422609,11,33.1,158.9427947998047,0.3634999990463257,0,0.0,0.0,,,,,0,,1,,
Fix,gps,59.942212,30.294819,22.000000,0.000000,4.000000,1510566840000
NMEA,$GPGSV,4,1,13,01,63,271,36,03,24,254,27,08,15,201,34,10,19,081,30*73,1510566839332
NMEA,$GPGSV,4,2,13,11,58,232,37,14,57,123,36,17,19,323,25,22,47,248,37*77,1510566839332
NMEA,$GPGSV,4,3,13,31,03,133,33,32,54,085,33,19,02,337,,24,09,016,*74,1510566839332
NMEA,$GPGSV,4,4,13,28,08,285,*46,1510566839332
NMEA,$GLGSV,3,1,10,86,07,167,27,73,16,071,30,80,23,018,26,65,32,234,30*6C,1510566839334
NMEA,$GLGSV,3,2,10,88,52,305,28,87,57,201,41,81,07,331,19,71,39,056,17*6B,1510566839334
NMEA,$GLGSV,3,3,10,72,83,223,35,79,02,324,*66,1510566839335
NMEA,$GPGSA,A,3,01,03,08,10,11,14,17,22,31,32,,,0.9,0.6,0.6*30,1510566839336
NMEA,$GPVTG,,T,,M,0.0,N,0.0,K,D*26,1510566839336
NMEA,$GPRMC,095400,A,5956.532731,N,03017.689164,E,0.0,,131117,8.4,E,D*3F,1510566839336
NMEA,$GPGGA,095400,5956.532731,N,03017.689164,E,2,10,0.6,4.0,M,18.0,M,,*4C,1510566839336
Fix,gps,59.942212,30.294819,22.000000,0.000000,4.000000,1510566841000
Raw,154902702,0,,64.98135917354375,-1194602058409351424,,,,,4703,1,0.0,15,122058340690117,8,36.7,-194.29934692382812,0.24650000035762787,0,0.0,0.0,,,,,0,,1,,
Raw,154902703,0,,64.98135917354375,-1194602058409351424,,,,,4703,3,0.0,15,122058332154580,40,21.3,-627.9691162109375,0.8644999861717224,0,0.0,0.0,,,,,0,,1,,
Raw,154902703,0,,64.98135917354375,-1194602058409351424,,,,,4703,8,0.0,15,122058328840011,11,33.5,701.3273315429688,0.31849998235702515,0,0.0,0.0,,,,,0,,1,,
Raw,154902709,0,,64.98135917354375,-1194602058409351424,,,,,4703,10,0.0,15,122058330586527,19,27.2,642.7454223632812,0.5414999723434448,0,0.0,0.0,,,,,0,,1,,
Raw,154902709,0,,64.98135917354375,-1194602058409351424,,,,,4703,11,0.0,15,122058340294243,8,36.9,138.47669982910156,0.24650000035762787,0,0.0,0.0,,,,,0,,1,,
Raw,154902710,0,,64.98135917354375,-1194602058409351424,,,,,4703,14,0.0,15,122058338741935,9,35.6,-124.07147216796875,0.2784999907016754,0,0.0,0.0,,,,,0,,1,,
Raw,154902710,0,,64.98135917354375,-1194602058409351424,,,,,4703,17,0.0,15,122058329213665,21,26.3,-483.74554443359375,0.5900000333786011,0,0.0,0.0,,,,,0,,1,,
Raw,154902711,0,,64.98135917354375,-1194602058409351424,,,,,4703,22,0.0,15,122058337047359,8,36.4,-429.7592468261719,0.2919999957084656,0,0.0,0.0,,,,,0,,1,,
Raw,154902711,0,,64.98135917354375,-1194602058409351424,,,,,4703,31,0.0,15,122058326234395,12,32.3,-686.6271362304688,0.37549999356269836,0,0.0,0.0,,,,,0,,1,,
Raw,154902712,0,,64.98135917354375,-1194602058409351424,,,,,4703,32,0.0,15,122058338422092,12,32.9,159.5897979736328,0.3634999990463257,0,0.0,0.0,,,,,0,,1,,
NMEA,$GPGSV,4,1,13,01,63,271,37,03,24,254,21,08,15,201,34,10,19,081,27*72,1510566840316
NMEA,$GPGSV,4,2,13,11,58,232,37,14,57,123,36,17,19,323,26,22,47,248,36*75,1510566840316
NMEA,$GPGSV,4,3,13,31,03,133,32,32,54,085,33,19,02,337,,24,09,016,*75,1510566840316
NMEA,$GPGSV,4,4,13,28,08,285,*46,1510566840318
NMEA,$GLGSV,3,1,10,86,07,167,27,73,16,071,32,80,23,018,24,65,32,234,31*6D,1510566840319
NMEA,$GLGSV,3,2,10,88,52,305,28,87,57,201,40,81,07,331,19,71,39,056,16*6B,1510566840319
NMEA,$GLGSV,3,3,10,72,83,223,35,79,02,324,*66,1510566840319
NMEA,$GPGSA,A,3,01,03,08,10,11,14,17,22,31,32,,,0.9,0.6,0.6*30,1510566840320
NMEA,$GPVTG,,T,,M,0.0,N,0.0,K,D*26,1510566840321
NMEA,$GPRMC,095401,A,5956.532722,N,03017.689143,E,0.0,,131117,8.4,E,D*39,1510566840322
NMEA,$GPGGA,095401,5956.532722,N,03017.689143,E,2,10,0.6,4.0,M,18.0,M,,*4A,1510566840322
Fix,gps,59.942212,30.294819,22.000000,0.000000,5.000000,1510566842000
NMEA,$GPGSV,4,1,13,01,63,271,37,03,24,254,25,08,15,201,35,10,19,081,26*76,1510566841315
Raw,154903710,0,,66.37438491452485,-1194602059409351424,,,,,4704,1,0.0,15,122059340690753,7,37.0,-194.03294372558594,0.24650000035762787,0,0.0,0.0,,,,,0,,1,,
Raw,154903710,0,,66.37438491452485,-1194602059409351424,,,,,4704,3,0.0,15,122059332156701,27,24.5,-628.0261840820312,0.6345000267028809,0,0.0,0.0,,,,,0,,1,,
Raw,154903711,0,,66.37438491452485,-1194602059409351424,,,,,4704,8,0.0,15,122059328837645,9,35.0,701.3368530273438,0.2985000014305115,0,0.0,0.0,,,,,0,,1,,
Raw,154903712,0,,66.37438491452485,-1194602059409351424,,,,,4704,10,0.0,15,122059330584455,24,25.7,642.9357299804688,0.5914999842643738,0,0.0,0.0,,,,,0,,1,,
Raw,154903712,0,,66.37438491452485,-1194602059409351424,,,,,4704,11,0.0,15,122059340293753,6,38.8,138.86680603027344,0.21649999916553497,0,0.0,0.0,,,,,0,,1,,
Raw,154903713,0,,66.37438491452485,-1194602059409351424,,,,,4704,14,0.0,15,122059338742351,9,35.9,-123.90021514892578,0.2784999907016754,0,0.0,0.0,,,,,0,,1,,
Raw,154903713,0,,66.37438491452485,-1194602059409351424,,,,,4704,17,0.0,15,122059329215246,17,28.0,-483.58380126953125,0.5099999904632568,0,0.0,0.0,,,,,0,,1,,
Raw,154903713,0,,66.37438491452485,-1194602059409351424,,,,,4704,22,0.0,15,122059337048784,7,37.0,-429.5308532714844,0.2720000147819519,0,0.0,0.0,,,,,0,,1,,
Raw,154903714,0,,66.37438491452485,-1194602059409351424,,,,,4704,31,0.0,15,122059326236657,11,33.2,-686.560546875,0.34549999237060547,0,0.0,0.0,,,,,0,,1,,
Raw,154903714,0,,66.37438491452485,-1194602059409351424,,,,,4704,32,0.0,15,122059338421539,11,33.3,159.83717346191406,0.3634999990463257,0,0.0,0.0,,,,,0,,1,,
NMEA,$GPGSV,4,2,13,11,58,232,39,14,57,123,36,17,19,323,28,22,47,248,37*74,1510566841315
NMEA,$GPGSV,4,3,13,31,03,133,33,32,54,085,33,19,02,337,,24,09,016,*74,1510566841315
NMEA,$GPGSV,4,4,13,28,08,285,*46,1510566841315
NMEA,$GLGSV,3,1,10,86,07,167,29,73,16,071,31,80,23,018,24,65,32,234,29*69,1510566841315
NMEA,$GLGSV,3,2,10,88,52,305,29,87,57,201,40,81,07,331,18,71,39,056,19*64,1510566841316
NMEA,$GLGSV,3,3,10,72,83,223,34,79,02,324,*67,1510566841316
NMEA,$GPGSA,A,3,01,03,08,10,11,14,17,22,31,32,,,0.9,0.6,0.6*30,1510566841319
NMEA,$GPVTG,,T,,M,0.0,N,0.0,K,D*26,1510566841319
NMEA,$GPRMC,095402,A,5956.532719,N,03017.689124,E,0.0,,131117,8.4,E,D*33,1510566841319
NMEA,$GPGGA,095402,5956.532719,N,03017.689124,E,2,10,0.6,4.0,M,18.0,M,,*40,1510566841319
Fix,gps,59.942212,30.294818,22.000000,0.000000,5.000000,1510566843000
NMEA,$GPGSV,4,1,13,01,63,271,38,03,24,254,25,08,15,201,34,10,19,081,23*7D,1510566842314
Raw,154904712,0,,70.54556044749916,-1194602060409351424,,,,,4705,1,0.0,15,122060340691390,7,37.5,-193.17662048339844,0.2264999896287918,0,0.0,0.0,,,,,0,,1,,
Raw,154904713,0,,70.54556044749916,-1194602060409351424,,,,,4705,3,0.0,15,122060332158722,27,24.5,-627.1603393554688,0.6345000267028809,0,0.0,0.0,,,,,0,,1,,
Raw,154904713,0,,70.54556044749916,-1194602060409351424,,,,,4705,8,0.0,15,122060328835301,10,34.3,702.1646118164062,0.31849998235702515,0,0.0,0.0,,,,,0,,1,,
Raw,154904714,0,,70.54556044749916,-1194602060409351424,,,,,4705,10,0.0,15,122060330582284,31,23.4,643.3068237304688,0.7414999604225159,0,0.0,0.0,,,,,0,,1,,
Raw,154904715,0,,70.54556044749916,-1194602060409351424,,,,,4705,11,0.0,15,122060340293291,6,38.0,139.69459533691406,0.2264999896287918,0,0.0,0.0,,,,,0,,1,,
Raw,154904715,0,,70.54556044749916,-1194602060409351424,,,,,4705,14,0.0,15,122060338742764,8,36.3,-123.01534271240234,0.2784999907016754,0,0.0,0.0,,,,,0,,1,,
Raw,154904716,0,,70.54556044749916,-1194602060409351424,,,,,4705,17,0.0,15,122060329216819,17,28.0,-482.8130798339844,0.5099999904632568,0,0.0,0.0,,,,,0,,1,,
Raw,154904716,0,,70.54556044749916,-1194602060409351424,,,,,4705,22,0.0,15,122060337050201,7,37.9,-428.74114990234375,0.25200000405311584,0,0.0,0.0,,,,,0,,1,,
Raw,154904717,0,,70.54556044749916,-1194602060409351424,,,,,4705,24,0.0,15,122060326888273,487,21.0,452.0806579589844,1.125499963760376,0,0.0,0.0,,,,,0,,1,,
Raw,154904718,0,,70.54556044749916,-1194602060409351424,,,,,4705,31,0.0,15,122060326238959,12,32.7,-685.7518310546875,0.34549999237060547,0,0.0,0.0,,,,,0,,1,,
Raw,154904719,0,,70.54556044749916,-1194602060409351424,,,,,4705,32,0.0,15,122060338420989,12,32.6,160.6459197998047,0.3634999990463257,0,0.0,0.0,,,,,0,,1,,
NMEA,$GPGSV,4,2,13,11,58,232,38,14,57,123,36,17,19,323,28,22,47,248,38*7A,1510566842314
NMEA,$GPGSV,4,3,13,24,09,016,21,31,03,133,33,32,54,085,33,19,02,337,*77,1510566842316
NMEA,$GPGSV,4,4,13,28,08,285,*46,1510566842316
NMEA,$GLGSV,3,1,10,86,07,167,28,73,16,071,31,80,23,018,23,65,32,234,30*67,1510566842316
NMEA,$GLGSV,3,2,10,88,52,305,27,87,57,201,41,81,07,331,18,71,39,056,22*63,1510566842316
NMEA,$GLGSV,3,3,10,72,83,223,33,79,02,324,*60,1510566842316
NMEA,$GPGSA,A,3,01,03,08,10,11,14,17,22,24,31,32,,0.9,0.6,0.6*36,1510566842317
NMEA,$GPVTG,,T,,M,0.0,N,0.0,K,D*26,1510566842318
NMEA,$GPRMC,095403,A,5956.532715,N,03017.689107,E,0.0,,131117,8.4,E,D*3F,1510566842318
NMEA,$GPGGA,095403,5956.532715,N,03017.689107,E,2,11,0.6,4.0,M,18.0,M,,*4D,1510566842318
Fix,gps,59.942212,30.294818,22.000000,0.000000,5.000000,1510566844000
Raw,154905704,0,,70.37271279841661,-1194602061409351424,,,,,4706,1,0.0,15,122061340692051,9,35.9,-193.24322509765625,0.26649999618530273,0,0.0,0.0,,,,,0,,1,,
Raw,154905706,0,,70.37271279841661,-1194602061409351424,,,,,4706,3,0.0,15,122061332160869,31,23.8,-626.9891357421875,0.684499979019165,0,0.0,0.0,,,,,0,,1,,
Raw,154905707,0,,70.37271279841661,-1194602061409351424,,,,,4706,8,0.0,15,122061328832950,9,35.0,701.8792114257812,0.2985000014305115,0,0.0,0.0,,,,,0,,1,,
Raw,154905707,0,,70.37271279841661,-1194602061409351424,,,,,4706,10,0.0,15,122061330580179,35,22.4,643.7254638671875,0.8014999628067017,0,0.0,0.0,,,,,0,,1,,
Raw,154905708,0,,70.37271279841661,-1194602061409351424,,,,,4706,11,0.0,15,122061340292835,6,38.7,139.54234313964844,0.21649999916553497,0,0.0,0.0,,,,,0,,1,,
Raw,154905708,0,,70.37271279841661,-1194602061409351424,,,,,4706,14,0.0,15,122061338743181,9,35.4,-123.18661499023438,0.2985000014305115,0,0.0,0.0,,,,,0,,1,,
Raw,154905709,0,,70.37271279841661,-1194602061409351424,,,,,4706,17,0.0,15,122061329218448,24,25.0,-482.8416748046875,0.6299999952316284,0,0.0,0.0,,,,,0,,1,,
Raw,154905709,0,,70.37271279841661,-1194602061409351424,,,,,4706,22,0.0,15,122061337051631,7,37.6,-428.7982482910156,0.25200000405311584,0,0.0,0.0,,,,,0,,1,,
Raw,154905710,0,,70.37271279841661,-1194602061409351424,,,,,4706,24,0.0,15,122061326886707,491,20.9,452.5849609375,1.875499963760376,0,0.0,0.0,,,,,0,,1,,
Raw,154905710,0,,70.37271279841661,-1194602061409351424,,,,,4706,31,0.0,15,122061326241253,12,32.1,-685.9135131835938,0.37549999356269836,0,0.0,0.0,,,,,0,,1,,
Raw,154905711,0,,70.37271279841661,-1194602061409351424,,,,,4706,32,0.0,15,122061338420438,12,32.0,160.66494750976562,0.3935000002384186,0,0.0,0.0,,,,,0,,1,,
NMEA,$GPGSV,4,1,13,01,63,271,36,03,24,254,24,08,15,201,35,10,19,081,22*72,1510566843315
NMEA,$GPGSV,4,2,13,11,58,232,39,14,57,123,35,17,19,323,25,22,47,248,38*75,1510566843315
NMEA,$GPGSV,4,3,13,24,09,016,21,31,03,133,32,32,54,085,32,19,02,337,*77,1510566843315
NMEA,$GPGSV,4,4,13,28,08,285,*46,1510566843315
NMEA,$GLGSV,3,1,10,86,07,167,30,73,16,071,32,80,23,018,22,65,32,234,29*64,1510566843315
NMEA,$GLGSV,3,2,10,88,52,305,29,87,57,201,41,81,07,331,18,71,39,056,18*64,1510566843315
NMEA,$GLGSV,3,3,10,72,83,223,34,79,02,324,*67,1510566843315
NMEA,$GPGSA,A,3,01,03,08,10,11,14,17,22,24,31,32,,0.9,0.6,0.7*37,1510566843317
NMEA,$GPVTG,,T,,M,0.0,N,0.0,K,D*26,1510566843317
NMEA,$GPRMC,095404,A,5956.532716,N,03017.689090,E,0.0,,131117,8.4,E,D*34,1510566843317
NMEA,$GPGGA,095404,5956.532716,N,03017.689090,E,2,11,0.6,4.0,M,18.0,M,,*46,1510566843317
Fix,gps,59.942212,30.294818,22.000000,0.000000,5.000000,1510566845000
Raw,154906705,0,,70.833062636666,-1194602062409351424,,,,,4707,1,0.0,15,122062340692697,10,34.5,-193.86167907714844,0.2865000069141388,0,0.0,0.0,,,,,0,,1,,
Raw,154906706,0,,70.833062636666,-1194602062409351424,,,,,4707,3,0.0,15,122062332162938,24,25.4,-627.44580078125,0.6345000267028809,0,0.0,0.0,,,,,0,,1,,
Raw,154906706,0,,70.833062636666,-1194602062409351424,,,,,4707,8,0.0,15,122062328830587,10,34.1,701.59375,0.31849998235702515,0,0.0,0.0,,,,,0,,1,,
Raw,154906707,0,,70.833062636666,-1194602062409351424,,,,,4707,10,0.0,15,122062330578130,40,21.5,643.6873779296875,0.8014999628067017,0,0.0,0.0,,,,,0,,1,,
Raw,154906707,0,,70.833062636666,-1194602062409351424,,,,,4707,11,0.0,15,122062340292365,7,37.0,139.2569122314453,0.24650000035762787,0,0.0,0.0,,,,,0,,1,,
Raw,154906708,0,,70.833062636666,-1194602062409351424,,,,,4707,14,0.0,15,122062338743601,11,33.8,-123.45301818847656,0.31849998235702515,0,0.0,0.0,,,,,0,,1,,
Raw,154906708,0,,70.833062636666,-1194602062409351424,,,,,4707,17,0.0,15,122062329219997,17,28.8,-483.2507629394531,0.4699999988079071,0,0.0,0.0,,,,,0,,1,,
Raw,154906708,0,,70.833062636666,-1194602062409351424,,,,,4707,22,0.0,15,122062337053058,8,36.1,-429.4167175292969,0.2919999957084656,0,0.0,0.0,,,,,0,,1,,
Raw,154906709,0,,70.833062636666,-1194602062409351424,,,,,4707,24,0.0,15,122062326884960,47,20.3,451.4432067871094,1.3545000553131104,0,0.0,0.0,,,,,0,,1,,
Raw,154906709,0,,70.833062636666,-1194602062409351424,,,,,4707,31,0.0,15,122062326243537,13,31.7,-686.3892822265625,0.37549999356269836,0,0.0,0.0,,,,,0,,1,,
Raw,154906710,0,,70.833062636666,-1194602062409351424,,,,,4707,32,0.0,15,122062338419876,12,32.1,160.4175567626953,0.3935000002384186,0,0.0,0.0,,,,,0,,1,,
NMEA,$GPGSV,4,1,13,01,63,271,35,03,24,254,25,08,15,201,34,10,19,081,22*71,1510566844314
NMEA,$GPGSV,4,2,13,11,58,232,37,14,57,123,34,17,19,323,29,22,47,248,36*78,1510566844314
NMEA,$GPGSV,4,3,13,24,09,016,20,31,03,133,32,32,54,085,32,19,02,337,*76,1510566844314
NMEA,$GPGSV,4,4,13,28,08,285,*46,1510566844314
NMEA,$GLGSV,3,1,10,86,07,167,27,73,16,071,32,80,23,018,23,65,32,234,28*62,1510566844315
NMEA,$GLGSV,3,2,10,88,52,305,28,87,57,201,39,81,07,331,18,71,39,056,16*64,1510566844316
NMEA,$GLGSV,3,3,10,72,83,223,33,79,02,324,*60,1510566844316
NMEA,$GPGSA,A,3,01,03,08,10,11,14,17,22,24,31,32,,0.9,0.6,0.7*37,1510566844317
NMEA,$GPVTG,,T,,M,0.0,N,0.0,K,D*26,1510566844317
NMEA,$GPRMC,095405,A,5956.532714,N,03017.689075,E,0.0,,131117,8.4,E,D*3C,1510566844317
NMEA,$GPGGA,095405,5956.532714,N,03017.689075,E,2,11,0.6,4.0,M,18.0,M,,*4E,1510566844317
Fix,gps,59.942212,30.294818,22.000000,0.000000,5.000000,1510566846000
NMEA,$GPGSV,4,1,13,01,63,271,35,03,24,254,22,08,15,201,35,10,19,081,19*7F,1510566845315
Raw,154907714,0,,72.44112202897668,-1194602063409351424,,,,,4708,1,0.0,15,122063340693355,9,35.2,-194.8607177734375,0.2865000069141388,0,0.0,0.0,,,,,0,,1,,
Raw,154907715,0,,72.44112202897668,-1194602063409351424,,,,,4708,3,0.0,15,122063332164992,35,22.2,-627.7122192382812,0.8044999837875366,0,0.0,0.0,,,,,0,,1,,
Raw,154907715,0,,72.44112202897668,-1194602063409351424,,,,,4708,8,0.0,15,122063328828254,10,34.9,700.2807006835938,0.2985000014305115,0,0.0,0.0,,,,,0,,1,,
Raw,154907716,0,,72.44112202897668,-1194602063409351424,,,,,4708,10,0.0,15,122063330575923,53,19.1,641.44189453125,1.0115000009536743,0,0.0,0.0,,,,,0,,1,,
Raw,154907717,0,,72.44112202897668,-1194602063409351424,,,,,4708,11,0.0,15,122063340291907,7,37.6,138.1627197265625,0.2264999896287918,0,0.0,0.0,,,,,0,,1,,
Raw,154907717,0,,72.44112202897668,-1194602063409351424,,,,,4708,14,0.0,15,122063338743986,9,35.6,-124.71847534179688,0.2784999907016754,0,0.0,0.0,,,,,0,,1,,
Raw,154907718,0,,72.44112202897668,-1194602063409351424,,,,,4708,17,0.0,15,122063329221599,13,31.0,-484.66845703125,0.4000000059604645,0,0.0,0.0,,,,,0,,1,,
Raw,154907718,0,,72.44112202897668,-1194602063409351424,,,,,4708,22,0.0,15,122063337054508,8,36.7,-430.43475341796875,0.2720000147819519,0,0.0,0.0,,,,,0,,1,,
Raw,154907719,0,,72.44112202897668,-1194602063409351424,,,,,4708,24,0.0,15,122063326883662,40,21.5,449.9398498535156,0.7954999804496765,0,0.0,0.0,,,,,0,,1,,
Raw,154907719,0,,72.44112202897668,-1194602063409351424,,,,,4708,31,0.0,15,122063326245790,11,33.0,-687.8259887695312,0.34549999237060547,0,0.0,0.0,,,,,0,,1,,
Raw,154907720,0,,72.44112202897668,-1194602063409351424,,,,,4708,32,0.0,15,122063338419366,12,32.2,159.01890563964844,0.3935000002384186,0,0.0,0.0,,,,,0,,1,,
NMEA,$GPGSV,4,2,13,11,58,232,38,14,57,123,36,17,19,323,31,22,47,248,37*7D,1510566845315
NMEA,$GPGSV,4,3,13,24,09,016,22,31,03,133,33,32,54,085,32,19,02,337,*75,1510566845315
NMEA,$GPGSV,4,4,13,28,08,285,*46,1510566845316
NMEA,$GLGSV,3,1,10,86,07,167,27,73,16,071,31,80,23,018,21,65,32,234,29*62,1510566845317
NMEA,$GLGSV,3,2,10,88,52,305,29,87,57,201,39,81,07,331,16,71,39,056,22*6C,1510566845317
NMEA,$GLGSV,3,3,10,72,83,223,35,79,02,324,*66,1510566845318
NMEA,$GPGSA,A,3,01,03,08,10,11,14,17,22,24,31,32,,0.9,0.6,0.7*37,1510566845319
NMEA,$GPVTG,,T,,M,0.0,N,0.0,K,D*26,1510566845319
NMEA,$GPRMC,095406,A,5956.532710,N,03017.689059,E,0.0,,131117,8.4,E,D*35,1510566845319
NMEA,$GPGGA,095406,5956.532710,N,03017.689059,E,2,11,0.6,4.0,M,18.0,M,,*47,1510566845319
Fix,gps,59.942212,30.294818,22.000000,0.000000,5.000000,1510566847000
NMEA,$GPGSV,4,1,13,01,63,271,37,03,24,254,21,08,15,201,34,10,19,081,24*71,1510566846320
NMEA,$GPGSV,4,2,13,11,58,232,37,14,57,123,36,17,19,323,31,22,47,248,36*73,1510566846321
Raw,154908718,0,,72.64503074111417,-1194602064409351424,,,,,4709,1,0.0,15,122064340693984,8,36.9,-198.81883239746094,0.24650000035762787,0,0.0,0.0,,,,,0,,1,,
Raw,154908718,0,,72.64503074111417,-1194602064409351424,,,,,4709,3,0.0,15,122064332167052,40,21.2,-633.1260986328125,0.8644999861717224,0,0.0,0.0,,,,,0,,1,,
Raw,154908719,0,,72.64503074111417,-1194602064409351424,,,,,4709,8,0.0,15,122064328825944,10,34.3,696.3606567382812,0.31849998235702515,0,0.0,0.0,,,,,0,,1,,
Raw,154908719,0,,72.64503074111417,-1194602064409351424,,,,,4709,10,0.0,15,122064330573721,27,24.1,638.1784057617188,0.6814999580383301,0,0.0,0.0,,,,,0,,1,,
Raw,154908720,0,,72.64503074111417,-1194602064409351424,,,,,4709,11,0.0,15,122064340291447,7,37.3,134.21412658691406,0.24650000035762787,0,0.0,0.0,,,,,0,,1,,
Raw,154908720,0,,72.64503074111417,-1194602064409351424,,,,,4709,14,0.0,15,122064338744412,9,35.5,-128.39114379882812,0.2784999907016754,0,0.0,0.0,,,,,0,,1,,
Raw,154908722,0,,72.64503074111417,-1194602064409351424,,,,,4709,17,0.0,15,122064329223234,14,30.8,-488.769287109375,0.4000000059604645,0,0.0,0.0,,,,,0,,1,,
Raw,154908722,0,,72.64503074111417,-1194602064409351424,,,,,4709,22,0.0,15,122064337055940,8,36.3,-434.52606201171875,0.2919999957084656,0,0.0,0.0,,,,,0,,1,,
Raw,154908722,0,,72.64503074111417,-1194602064409351424,,,,,4709,24,0.0,15,122064326882110,35,22.4,447.55169677734375,0.7954999804496765,0,0.0,0.0,,,,,0,,1,,
Raw,154908723,0,,72.64503074111417,-1194602064409351424,,,,,4709,31,0.0,15,122064326248095,12,32.9,-691.8126220703125,0.34549999237060547,0,0.0,0.0,,,,,0,,1,,
Raw,154908723,0,,72.64503074111417,-1194602064409351424,,,,,4709,32,0.0,15,122064338418842,11,33.2,155.11788940429688,0.3634999990463257,0,0.0,0.0,,,,,0,,1,,
NMEA,$GPGSV,4,3,13,24,09,016,22,31,03,133,33,32,54,085,33,19,02,337,*74,1510566846321
NMEA,$GPGSV,4,4,13,28,08,285,*46,1510566846321
NMEA,$GLGSV,3,1,10,86,07,167,27,73,16,071,31,80,23,018,23,65,32,234,28*61,1510566846323
NMEA,$GLGSV,3,2,10,88,52,305,30,87,57,201,39,81,07,331,20,71,39,056,20*63,1510566846323
NMEA,$GLGSV,3,3,10,72,83,223,34,79,02,324,*67,1510566846323
NMEA,$GPGSA,A,3,01,03,08,10,11,14,17,22,24,31,32,,0.9,0.6,0.6*36,1510566846326
NMEA,$GPVTG,,T,,M,0.0,N,0.0,K,D*26,1510566846326
NMEA,$GPRMC,095407,A,5956.532702,N,03017.689053,E,0.0,,131117,8.4,E,D*3D,1510566846326
NMEA,$GPGGA,095407,5956.532702,N,03017.689053,E,2,11,0.6,4.0,M,18.0,M,,*4F,1510566846326
Fix,gps,59.942212,30.294817,22.000000,0.000000,5.000000,1510566848000
NMEA,$GPGSV,4,1,13,01,63,271,38,03,24,254,23,08,15,201,36,10,19,081,22*78,1510566847330
Raw,154909721,0,,73.27471394091845,-1194602065409351424,,,,,4710,1,0.0,15,122065340694642,6,38.0,-196.30694580078125,0.2264999896287918,0,0.0,0.0,,,,,0,,1,,
Raw,154909722,0,,73.27471394091845,-1194602065409351424,,,,,4710,3,0.0,15,122065332169168,35,22.8,-631.1279907226562,0.7444999814033508,0,0.0,0.0,,,,,0,,1,,
Raw,154909722,0,,73.27471394091845,-1194602065409351424,,,,,4710,8,0.0,15,122065328823597,8,36.0,698.2825927734375,0.2784999907016754,0,0.0,0.0,,,,,0,,1,,
Raw,154909723,0,,73.27471394091845,-1194602065409351424,,,,,4710,10,0.0,15,122065330571644,40,21.5,639.1868896484375,0.8014999628067017,0,0.0,0.0,,,,,0,,1,,
Raw,154909723,0,,73.27471394091845,-1194602065409351424,,,,,4710,11,0.0,15,122065340290994,6,38.5,136.44056701660156,0.21649999916553497,0,0.0,0.0,,,,,0,,1,,
Raw,154909724,0,,73.27471394091845,-1194602065409351424,,,,,4710,14,0.0,15,122065338744835,8,36.5,-126.35499572753906,0.25850000977516174,0,0.0,0.0,,,,,0,,1,,
Raw,154909724,0,,73.27471394091845,-1194602065409351424,,,,,4710,17,0.0,15,122065329224885,13,31.5,-486.6855773925781,0.3799999952316284,0,0.0,0.0,,,,,0,,1,,
Raw,154909725,0,,73.27471394091845,-1194602065409351424,,,,,4710,22,0.0,15,122065337057375,7,37.7,-432.48040771484375,0.25200000405311584,0,0.0,0.0,,,,,0,,1,,
Raw,154909725,0,,73.27471394091845,-1194602065409351424,,,,,4710,31,0.0,15,122065326250382,11,33.8,-689.7098999023438,0.3154999911785126,0,0.0,0.0,,,,,0,,1,,
Raw,154909725,0,,73.27471394091845,-1194602065409351424,,,,,4710,32,0.0,15,122065338418325,11,33.9,157.48704528808594,0.3334999978542328,0,0.0,0.0,,,,,0,,1,,
NMEA,$GPGSV,4,2,13,11,58,232,39,14,57,123,37,17,19,323,32,22,47,248,38*71,1510566847331
NMEA,$GPGSV,4,3,13,31,03,133,34,32,54,085,34,19,02,337,,24,09,016,*74,1510566847331
NMEA,$GPGSV,4,4,13,28,08,285,*46,1510566847331
NMEA,$GLGSV,3,1,10,86,07,167,26,73,16,071,34,80,23,018,23,65,32,234,29*64,1510566847331
NMEA,$GLGSV,3,2,10,88,52,305,30,87,57,201,40,81,07,331,19,71,39,056,23*64,1510566847331
NMEA,$GLGSV,3,3,10,72,83,223,36,79,02,324,*65,1510566847331
NMEA,$GPGSA,A,3,01,03,08,10,11,14,17,22,31,32,,,0.9,0.6,0.6*30,1510566847334
NMEA,$GPVTG,,T,,M,0.0,N,0.0,K,D*26,1510566847335
NMEA,$GPRMC,095408,A,5956.532697,N,03017.689040,E,0.0,,131117,8.4,E,D*3D,1510566847335
NMEA,$GPGGA,095408,5956.532697,N,03017.689040,E,2,10,0.6,4.0,M,18.0,M,,*4E,1510566847335
Fix,gps,59.942212,30.294817,22.000000,0.000000,4.000000,1510566849000
Raw,154910723,0,,62.77619831962511,-1194602066409351424,,,,,4711,1,0.0,15,122066340695281,7,37.7,-190.34124755859375,0.2264999896287918,0,0.0,0.0,,,,,0,,1,,
Raw,154910724,0,,62.77619831962511,-1194602066409351424,,,,,4711,8,0.0,15,122066328821247,9,35.5,704.2293090820312,0.2784999907016754,0,0.0,0.0,,,,,0,,1,,
Raw,154910725,0,,62.77619831962511,-1194602066409351424,,,,,4711,10,0.0,15,122066330569509,35,22.4,645.6093139648438,0.8014999628067017,0,0.0,0.0,,,,,0,,1,,
Raw,154910726,0,,62.77619831962511,-1194602066409351424,,,,,4711,11,0.0,15,122066340290524,6,38.2,142.46336364746094,0.2264999896287918,0,0.0,0.0,,,,,0,,1,,
Raw,154910727,0,,62.77619831962511,-1194602066409351424,,,,,4711,14,0.0,15,122066338745253,9,35.0,-120.50346374511719,0.2985000014305115,0,0.0,0.0,,,,,0,,1,,
Raw,154910727,0,,62.77619831962511,-1194602066409351424,,,,,4711,17,0.0,15,122066329226480,12,32.0,-480.4249267578125,0.3799999952316284,0,0.0,0.0,,,,,0,,1,,
Raw,154910728,0,,62.77619831962511,-1194602066409351424,,,,,4711,22,0.0,15,122066337058814,7,37.8,-426.4861755371094,0.25200000405311584,0,0.0,0.0,,,,,0,,1,,
Raw,154910728,0,,62.77619831962511,-1194602066409351424,,,,,4711,31,0.0,15,122066326252667,12,32.8,-683.6395263671875,0.34549999237060547,0,0.0,0.0,,,,,0,,1,,
Raw,154910729,0,,62.77619831962511,-1194602066409351424,,,,,4711,32,0.0,15,122066338417817,11,33.2,163.1007080078125,0.3634999990463257,0,0.0,0.0,,,,,0,,1,,
NMEA,$GPGSV,4,1,13,01,63,271,38,08,15,201,36,10,19,081,22,11,58,232,38*7A,1510566848331
NMEA,$GPGSV,4,2,13,14,57,123,35,17,19,323,32,22,47,248,38,31,03,133,33*77,1510566848332
NMEA,$GPGSV,4,3,13,32,54,085,33,03,24,254,,19,02,337,,24,09,016,*72,1510566848332
NMEA,$GPGSV,4,4,13,28,08,285,*46,1510566848332
NMEA,$GLGSV,3,1,10,86,07,167,25,73,16,071,33,80,23,018,23,65,32,234,27*6E,1510566848332
NMEA,$GLGSV,3,2,10,88,52,305,31,87,57,201,40,81,07,331,19,71,39,056,23*65,1510566848332
NMEA,$GLGSV,3,3,10,72,83,223,35,79,02,324,*66,1510566848332
NMEA,$GPGSA,A,3,01,08,10,11,14,17,22,31,32,,,,0.9,0.6,0.6*33,1510566848333
NMEA,$GPVTG,,T,,M,0.0,N,0.0,K,D*26,1510566848334
NMEA,$GPRMC,095409,A,5956.532694,N,03017.689027,E,0.0,,131117,8.4,E,D*3E,1510566848334
NMEA,$GPGGA,095409,5956.532694,N,03017.689027,E,2,09,0.6,4.0,M,18.0,M,,*45,1510566848334
Fix,gps,59.942212,30.294817,22.000000,0.000000,4.000000,1510566850000
Raw,154911726,0,,67.70635809516534,-1194602067409351424,,,,,4712,1,0.0,15,122067340695931,6,39.3,-190.09385681152344,0.21649999916553497,0,0.0,0.0,,,,,0,,1,,
Raw,154911727,0,,67.70635809516534,-1194602067409351424,,,,,4712,8,0.0,15,122067328818909,7,37.1,704.600341796875,0.25850000977516174,0,0.0,0.0,,,,,0,,1,,
Raw,154911728,0,,67.70635809516534,-1194602067409351424,,,,,4712,10,0.0,15,122067330567269,27,24.8,645.8281860351562,0.6315000057220459,0,0.0,0.0,,,,,0,,1,,
Raw,154911728,0,,67.70635809516534,-1194602067409351424,,,,,4712,11,0.0,15,122067340290040,6,39.1,142.8724822998047,0.21649999916553497,0,0.0,0.0,,,,,0,,1,,
Raw,154911729,0,,67.70635809516534,-1194602067409351424,,,,,4712,14,0.0,15,122067338745644,7,37.1,-119.83744049072266,0.25850000977516174,0,0.0,0.0,,,,,0,,1,,
Raw,154911729,0,,67.70635809516534,-1194602067409351424,,,,,4712,17,0.0,15,122067329228077,12,32.5,-480.16802978515625,0.3499999940395355,0,0.0,0.0,,,,,0,,1,,
Raw,154911730,0,,67.70635809516534,-1194602067409351424,,,,,4712,22,0.0,15,122067337060243,7,37.3,-425.9819030761719,0.2720000147819519,0,0.0,0.0,,,,,0,,1,,
Raw,154911730,0,,67.70635809516534,-1194602067409351424,,,,,4712,31,0.0,15,122067326254957,11,33.7,-683.3540649414062,0.3154999911785126,0,0.0,0.0,,,,,0,,1,,
Raw,154911730,0,,67.70635809516534,-1194602067409351424,,,,,4712,32,0.0,15,122067338417298,11,33.4,163.91897583007812,0.3634999990463257,0,0.0,0.0,,,,,0,,1,,
NMEA,$GPGSV,4,1,13,01,63,271,39,08,15,201,37,10,19,081,25,11,58,232,39*7C,1510566849331
NMEA,$GPGSV,4,2,13,14,57,123,37,17,19,323,33,22,47,248,37,31,03,133,34*7C,1510566849331
NMEA,$GPGSV,4,3,13,32,54,085,33,03,24,254,,19,02,337,,24,09,016,*72,1510566849331
NMEA,$GPGSV,4,4,13,28,08,285,*46,1510566849332
NMEA,$GLGSV,3,1,10,86,07,167,25,73,16,071,34,80,23,018,20,65,32,234,28*65,1510566849332
NMEA,$GLGSV,3,2,10,88,52,305,32,87,57,201,41,81,07,331,20,71,39,056,25*6B,1510566849333
NMEA,$GLGSV,3,3,10,72,83,223,36,79,02,324,*65,1510566849333
NMEA,$GPGSA,A,3,01,08,10,11,14,17,22,31,32,,,,0.9,0.6,0.6*33,1510566849337
NMEA,$GPVTG,,T,,M,0.0,N,0.0,K,D*26,1510566849337
NMEA,$GPRMC,095410,A,5956.532691,N,03017.689013,E,0.0,,131117,8.4,E,D*34,1510566849337
NMEA,$GPGGA,095410,5956.532691,N,03017.689013,E,2,09,0.6,4.0,M,18.0,M,,*4F,1510566849337
Raw,154912706,0,,62.172330217435956,-1194602068409351424,,,,,4713,1,0.0,15,122068340696547,6,39.3,-190.07484436035156,0.21649999916553497,0,0.0,0.0,,,,,0,,1,,
Raw,154912707,0,,62.172330217435956,-1194602068409351424,,,,,4713,8,0.0,15,122068328816544,7,37.4,704.5338134765625,0.25850000977516174,0,0.0,0.0,,,,,0,,1,,
Raw,154912708,0,,62.172330217435956,-1194602068409351424,,,,,4713,10,0.0,15,122068330565085,27,24.9,646.0755615234375,0.6315000057220459,0,0.0,0.0,,,,,0,,1,,
Raw,154912709,0,,62.172330217435956,-1194602068409351424,,,,,4713,11,0.0,15,122068340289561,6,39.0,142.91055297851562,0.21649999916553497,0,0.0,0.0,,,,,0,,1,,
Raw,154912709,0,,62.172330217435956,-1194602068409351424,,,,,4713,14,0.0,15,122068338746046,8,36.4,-120.00870513916016,0.2784999907016754,0,0.0,0.0,,,,,0,,1,,
Raw,154912710,0,,62.172330217435956,-1194602068409351424,,,,,4713,17,0.0,15,122068329229739,17,28.3,-480.17755126953125,0.5099999904632568,0,0.0,0.0,,,,,0,,1,,
Raw,154912710,0,,62.172330217435956,-1194602068409351424,,,,,4713,22,0.0,15,122068337061673,7,37.9,-426.1341552734375,0.25200000405311584,0,0.0,0.0,,,,,0,,1,,
Raw,154912711,0,,62.172330217435956,-1194602068409351424,,,,,4713,31,0.0,15,122068326257242,11,33.8,-683.5443725585938,0.3154999911785126,0,0.0,0.0,,,,,0,,1,,
Raw,154912711,0,,62.172330217435956,-1194602068409351424,,,,,4713,32,0.0,15,122068338416751,11,33.0,163.89993286132812,0.3634999990463257,0,0.0,0.0,,,,,0,,1,,
Fix,gps,59.942211,30.294817,22.000000,0.000000,4.000000,1510566851000
NMEA,$GPGSV,4,1,13,01,63,271,39,08,15,201,37,10,19,081,25,11,58,232,39*7C,1510566850332
NMEA,$GPGSV,4,2,13,14,57,123,36,17,19,323,28,22,47,248,38,31,03,133,34*78,1510566850332
NMEA,$GPGSV,4,3,13,32,54,085,33,03,24,254,,19,02,337,,24,09,016,*72,1510566850332
NMEA,$GPGSV,4,4,13,28,08,285,*46,1510566850332
NMEA,$GLGSV,3,1,10,86,07,167,28,73,16,071,33,80,23,018,22,65,32,234,29*6C,1510566850332
NMEA,$GLGSV,3,2,10,88,52,305,31,87,57,201,42,81,07,331,21,71,39,056,27*68,1510566850334
NMEA,$GLGSV,3,3,10,72,83,223,36,79,02,324,*65,1510566850334
NMEA,$GPGSA,A,3,01,08,10,11,14,17,22,31,32,,,,0.9,0.6,0.6*33,1510566850335
NMEA,$GPVTG,,T,,M,0.0,N,0.0,K,D*26,1510566850336
NMEA,$GPRMC,095411,A,5956.532688,N,03017.688999,E,0.0,,131117,8.4,E,D*37,1510566850336
NMEA,$GPGGA,095411,5956.532688,N,03017.688999,E,2,09,0.6,4.0,M,18.0,M,,*4C,1510566850336
Fix,gps,59.942211,30.294816,22.000000,0.000000,4.000000,1510566852000
Raw,154913712,0,,58.134912251261994,-1194602069409351424,,,,,4714,1,0.0,15,122069340697176,5,40.6,-190.28416442871094,0.18649999797344208,0,0.0,0.0,,,,,0,,1,,
Raw,154913713,0,,58.134912251261994,-1194602069409351424,,,,,4714,8,0.0,15,122069328814191,6,38.0,704.333984375,0.23849999904632568,0,0.0,0.0,,,,,0,,1,,
Raw,154913713,0,,58.134912251261994,-1194602069409351424,,,,,4714,10,0.0,15,122069330562853,40,21.9,646.3610229492188,0.8014999628067017,0,0.0,0.0,,,,,0,,1,,
Raw,154913714,0,,58.134912251261994,-1194602069409351424,,,,,4714,11,0.0,15,122069340289097,6,38.6,142.75831604003906,0.21649999916553497,0,0.0,0.0,,,,,0,,1,,
Raw,154913714,0,,58.134912251261994,-1194602069409351424,,,,,4714,14,0.0,15,122069338746464,8,36.2,-120.03724670410156,0.2784999907016754,0,0.0,0.0,,,,,0,,1,,
Raw,154913715,0,,58.134912251261994,-1194602069409351424,,,,,4714,17,0.0,15,122069329231277,17,28.6,-480.5390930175781,0.4699999988079071,0,0.0,0.0,,,,,0,,1,,
Raw,154913715,0,,58.134912251261994,-1194602069409351424,,,,,4714,22,0.0,15,122069337063096,6,38.1,-426.3339538574219,0.25200000405311584,0,0.0,0.0,,,,,0,,1,,
Raw,154913716,0,,58.134912251261994,-1194602069409351424,,,,,4714,31,0.0,15,122069326259539,11,33.5,-683.7537231445312,0.3154999911785126,0,0.0,0.0,,,,,0,,1,,
Raw,154913716,0,,58.134912251261994,-1194602069409351424,,,,,4714,32,0.0,15,122069338416221,12,32.1,163.74769592285156,0.3935000002384186,0,0.0,0.0,,,,,0,,1,,
NMEA,$GPGSV,4,1,13,01,63,271,41,08,15,201,38,10,19,081,22,11,58,232,39*7B,1510566851332
NMEA,$GPGSV,4,2,13,14,57,123,36,17,19,323,29,22,47,248,38,31,03,133,34*79,1510566851333
NMEA,$GPGSV,4,3,13,32,54,085,32,03,24,254,,19,02,337,,24,09,016,*73,1510566851333
NMEA,$GPGSV,4,4,13,28,08,285,*46,1510566851333
NMEA,$GLGSV,3,1,10,86,07,167,30,73,16,071,31,80,23,018,23,65,32,234,30*6E,1510566851333
NMEA,$GLGSV,3,2,10,88,52,305,32,87,57,201,42,81,07,331,18,71,39,056,28*6E,1510566851333
NMEA,$GLGSV,3,3,10,72,83,223,35,79,02,324,*66,1510566851334
NMEA,$GPGSA,A,3,01,08,10,11,14,17,22,31,32,,,,0.9,0.6,0.6*33,1510566851336
NMEA,$GPVTG,,T,,M,0.0,N,0.0,K,D*26,1510566851336
NMEA,$GPRMC,095412,A,5956.532685,N,03017.688988,E,0.0,,131117,8.4,E,D*39,1510566851336
NMEA,$GPGGA,095412,5956.532685,N,03017.688988,E,2,09,0.6,4.0,M,18.0,M,,*42,1510566851336
Raw,154914741,0,,55.24137304746546,-1194602070409351424,,,,,4715,1,0.0,15,122070340697811,5,40.7,-190.3222198486328,0.18649999797344208,0,0.0,0.0,,,,,0,,1,,
Raw,154914741,0,,55.24137304746546,-1194602070409351424,,,,,4715,8,0.0,15,122070328811840,7,37.8,704.1246337890625,0.23849999904632568,0,0.0,0.0,,,,,0,,1,,
Raw,154914742,0,,55.24137304746546,-1194602070409351424,,,,,4715,10,0.0,15,122070330560801,40,21.9,646.1421508789062,0.8014999628067017,0,0.0,0.0,,,,,0,,1,,
Raw,154914742,0,,55.24137304746546,-1194602070409351424,,,,,4715,11,0.0,15,122070340288628,6,39.2,142.79637145996094,0.21649999916553497,0,0.0,0.0,,,,,0,,1,,
Raw,154914743,0,,55.24137304746546,-1194602070409351424,,,,,4715,14,0.0,15,122070338746866,8,36.4,-120.05628204345703,0.2784999907016754,0,0.0,0.0,,,,,0,,1,,
Raw,154914743,0,,55.24137304746546,-1194602070409351424,,,,,4715,17,0.0,15,122070329232852,14,30.9,-480.3963623046875,0.4000000059604645,0,0.0,0.0,,,,,0,,1,,
Raw,154914744,0,,55.24137304746546,-1194602070409351424,,,,,4715,22,0.0,15,122070337064523,7,37.0,-426.5052185058594,0.2720000147819519,0,0.0,0.0,,,,,0,,1,,
Raw,154914745,0,,55.24137304746546,-1194602070409351424,,,,,4715,31,0.0,15,122070326261798,11,33.7,-683.9725341796875,0.3154999911785126,0,0.0,0.0,,,,,0,,1,,
Raw,154914746,0,,55.24137304746546,-1194602070409351424,,,,,4715,32,0.0,15,122070338415696,14,30.0,163.5478973388672,0.44350001215934753,0,0.0,0.0,,,,,0,,1,,
Fix,gps,59.942211,30.294816,22.000000,0.000000,4.000000,1510566853000
NMEA,$GPGSV,4,1,13,01,63,271,41,08,15,201,38,10,19,081,22,11,58,232,39*7B,1510566852327
NMEA,$GPGSV,4,2,13,14,57,123,36,17,19,323,31,22,47,248,37,31,03,133,34*7F,1510566852327
NMEA,$GPGSV,4,3,13,32,54,085,30,03,24,254,,19,02,337,,24,09,016,*71,1510566852327
NMEA,$GPGSV,4,4,13,28,08,285,*46,1510566852327
NMEA,$GLGSV,3,1,10,86,07,167,29,73,16,071,31,80,23,018,21,65,32,234,31*65,1510566852328
NMEA,$GLGSV,3,2,10,88,52,305,30,87,57,201,42,81,07,331,20,71,39,056,27*68,1510566852328
NMEA,$GLGSV,3,3,10,72,83,223,34,79,02,324,*67,1510566852328
NMEA,$GPGSA,A,3,01,08,10,11,14,17,22,31,32,,,,0.9,0.6,0.6*33,1510566852330
NMEA,$GPVTG,,T,,M,0.0,N,0.0,K,D*26,1510566852330
NMEA,$GPRMC,095413,A,5956.532683,N,03017.688977,E,0.0,,131117,8.4,E,D*3E,1510566852330
NMEA,$GPGGA,095413,5956.532683,N,03017.688977,E,2,09,0.6,4.0,M,18.0,M,,*45,1510566852331
Fix,gps,59.942211,30.294816,22.000000,0.000000,4.000000,1510566854000
Raw,154915730,0,,53.17813338479027,-1194602071409351424,,,,,4716,1,0.0,15,122071340698434,6,39.9,-190.71231079101562,0.1965000033378601,0,0.0,0.0,,,,,0,,1,,
Raw,154915731,0,,53.17813338479027,-1194602071409351424,,,,,4716,8,0.0,15,122071328809493,7,37.0,703.6964721679688,0.25850000977516174,0,0.0,0.0,,,,,0,,1,,
Raw,154915731,0,,53.17813338479027,-1194602071409351424,,,,,4716,10,0.0,15,122071330558454,31,23.5,645.542724609375,0.6814999580383301,0,0.0,0.0,,,,,0,,1,,
Raw,154915732,0,,53.17813338479027,-1194602071409351424,,,,,4716,11,0.0,15,122071340288139,6,38.6,142.34918212890625,0.21649999916553497,0,0.0,0.0,,,,,0,,1,,
Raw,154915734,0,,53.17813338479027,-1194602071409351424,,,,,4716,14,0.0,15,122071338747247,9,35.4,-120.35123443603516,0.2985000014305115,0,0.0,0.0,,,,,0,,1,,
Raw,154915734,0,,53.17813338479027,-1194602071409351424,,,,,4716,17,0.0,15,122071329234461,11,33.0,-480.8911437988281,0.3499999940395355,0,0.0,0.0,,,,,0,,1,,
Raw,154915736,0,,53.17813338479027,-1194602071409351424,,,,,4716,22,0.0,15,122071337065942,7,37.4,-426.7430725097656,0.2720000147819519,0,0.0,0.0,,,,,0,,1,,
Raw,154915737,0,,53.17813338479027,-1194602071409351424,,,,,4716,31,0.0,15,122071326264083,12,32.6,-684.4578247070312,0.34549999237060547,0,0.0,0.0,,,,,0,,1,,
Raw,154915738,0,,53.17813338479027,-1194602071409351424,,,,,4716,32,0.0,15,122071338415165,14,30.6,163.3290557861328,0.41350001096725464,0,0.0,0.0,,,,,0,,1,,
NMEA,$GPGSV,4,1,13,01,63,271,40,08,15,201,37,10,19,081,24,11,58,232,39*73,1510566853321
NMEA,$GPGSV,4,2,13,14,57,123,35,17,19,323,33,22,47,248,37,31,03,133,33*79,1510566853322
NMEA,$GPGSV,4,3,13,32,54,085,31,03,24,254,,19,02,337,,24,09,016,*70,1510566853322
NMEA,$GPGSV,4,4,13,28,08,285,*46,1510566853322
NMEA,$GLGSV,3,1,10,86,07,167,30,73,16,071,33,80,23,018,21,65,32,234,29*66,1510566853323
NMEA,$GLGSV,3,2,10,88,52,305,30,87,57,201,42,81,07,331,19,71,39,056,28*6D,1510566853323
NMEA,$GLGSV,3,3,10,72,83,223,34,79,02,324,*67,1510566853323
NMEA,$GPGSA,A,3,01,08,10,11,14,17,22,31,32,,,,0.9,0.6,0.6*33,1510566853324
NMEA,$GPVTG,,T,,M,0.0,N,0.0,K,D*26,1510566853325
NMEA,$GPRMC,095414,A,5956.532681,N,03017.688968,E,0.0,,131117,8.4,E,D*35,1510566853325
NMEA,$GPGGA,095414,5956.532681,N,03017.688968,E,2,09,0.6,4.0,M,18.0,M,,*4E,1510566853325
Fix,gps,59.942211,30.294816,22.000000,0.000000,4.000000,1510566855000
Raw,154916734,0,,55.16262535820715,-1194602072409351424,,,,,4717,1,0.0,15,122072340699073,5,40.1,-191.33078002929688,0.1965000033378601,0,0.0,0.0,,,,,0,,1,,
Raw,154916734,0,,55.16262535820715,-1194602072409351424,,,,,4717,8,0.0,15,122072328807137,8,36.8,702.8782348632812,0.25850000977516174,0,0.0,0.0,,,,,0,,1,,
Raw,154916735,0,,55.16262535820715,-1194602072409351424,,,,,4717,10,0.0,15,122072330556399,40,21.0,643.7825317382812,0.8614999651908875,0,0.0,0.0,,,,,0,,1,,
Raw,154916735,0,,55.16262535820715,-1194602072409351424,,,,,4717,11,0.0,15,122072340287667,6,38.6,141.8544158935547,0.21649999916553497,0,0.0,0.0,,,,,0,,1,,
Raw,154916736,0,,55.16262535820715,-1194602072409351424,,,,,4717,14,0.0,15,122072338747671,9,35.2,-121.12191772460938,0.2985000014305115,0,0.0,0.0,,,,,0,,1,,
Raw,154916736,0,,55.16262535820715,-1194602072409351424,,,,,4717,17,0.0,15,122072329236054,12,32.7,-481.6618347167969,0.3499999940395355,0,0.0,0.0,,,,,0,,1,,
Raw,154916737,0,,55.16262535820715,-1194602072409351424,,,,,4717,22,0.0,15,122072337067364,8,36.9,-427.57086181640625,0.2720000147819519,0,0.0,0.0,,,,,0,,1,,
Raw,154916737,0,,55.16262535820715,-1194602072409351424,,,,,4717,31,0.0,15,122072326266364,12,32.1,-685.17138671875,0.37549999356269836,0,0.0,0.0,,,,,0,,1,,
Raw,154916738,0,,55.16262535820715,-1194602072409351424,,,,,4717,32,0.0,15,122072338414556,14,30.8,162.55836486816406,0.41350001096725464,0,0.0,0.0,,,,,0,,1,,
NMEA,$GPGSV,4,1,13,01,63,271,40,08,15,201,37,10,19,081,21,11,58,232,39*76,1510566854325
NMEA,$GPGSV,4,2,13,14,57,123,35,17,19,323,33,22,47,248,37,31,03,133,32*78,1510566854326
NMEA,$GPGSV,4,3,13,32,54,085,31,03,24,254,,19,02,337,,24,09,016,*70,1510566854326
NMEA,$GPGSV,4,4,13,28,08,285,*46,1510566854326
NMEA,$GLGSV,3,1,10,86,07,167,28,73,16,071,31,80,23,018,23,65,32,234,30*67,1510566854326
NMEA,$GLGSV,3,2,10,88,52,305,30,87,57,201,41,81,07,331,19,71,39,056,29*6F,1510566854327
NMEA,$GLGSV,3,3,10,72,83,223,35,79,02,324,*66,1510566854327
NMEA,$GPGSA,A,3,01,08,10,11,14,17,22,31,32,,,,0.9,0.6,0.6*33,1510566854329
NMEA,$GPVTG,,T,,M,0.0,N,0.0,K,D*26,1510566854329
NMEA,$GPRMC,095415,A,5956.532679,N,03017.688961,E,0.0,,131117,8.4,E,D*3A,1510566854329
NMEA,$GPGGA,095415,5956.532679,N,03017.688961,E,2,09,0.6,4.0,M,18.0,M,,*41,1510566854329
Raw,154917740,0,,58.240137150278315,-1194602073409351424,,,,,4718,1,0.0,15,122073340699709,5,40.0,-191.08338928222656,0.1965000033378601,0,0.0,0.0,,,,,0,,1,,
Raw,154917740,0,,58.240137150278315,-1194602073409351424,,,,,4718,8,0.0,15,122073328804790,7,37.2,703.0875244140625,0.25850000977516174,0,0.0,0.0,,,,,0,,1,,
Raw,154917741,0,,58.240137150278315,-1194602073409351424,,,,,4718,10,0.0,15,122073330554173,35,22.9,644.0775146484375,0.7414999604225159,0,0.0,0.0,,,,,0,,1,,
Raw,154917741,0,,58.240137150278315,-1194602073409351424,,,,,4718,11,0.0,15,122073340287204,6,38.1,142.22549438476562,0.2264999896287918,0,0.0,0.0,,,,,0,,1,,
Raw,154917742,0,,58.240137150278315,-1194602073409351424,,,,,4718,14,0.0,15,122073338748069,9,35.3,-120.90309143066406,0.2985000014305115,0,0.0,0.0,,,,,0,,1,,
Raw,154917742,0,,58.240137150278315,-1194602073409351424,,,,,4718,17,0.0,15,122073329237660,11,33.8,-481.15753173828125,0.3199999928474426,0,0.0,0.0,,,,,0,,1,,
Raw,154917743,0,,58.240137150278315,-1194602073409351424,,,,,4718,22,0.0,15,122073337068796,7,37.6,-427.304443359375,0.25200000405311584,0,0.0,0.0,,,,,0,,1,,
Raw,154917743,0,,58.240137150278315,-1194602073409351424,,,,,4718,31,0.0,15,122073326268643,12,32.7,-685.0096435546875,0.34549999237060547,0,0.0,0.0,,,,,0,,1,,
Raw,154917744,0,,58.240137150278315,-1194602073409351424,,,,,4718,32,0.0,15,122073338414038,13,31.5,162.93894958496094,0.3935000002384186,0,0.0,0.0,,,,,0,,1,,
Fix,gps,59.942211,30.294816,22.000000,0.000000,4.000000,1510566856000
NMEA,$GPGSV,4,1,13,01,63,271,40,08,15,201,37,10,19,081,23,11,58,232,38*75,1510566855330
NMEA,$GPGSV,4,2,13,14,57,123,35,17,19,323,34,22,47,248,38,31,03,133,33*71,1510566855330
NMEA,$GPGSV,4,3,13,32,54,085,32,03,24,254,,19,02,337,,24,09,016,*73,1510566855330
NMEA,$GPGSV,4,4,13,28,08,285,*46,1510566855330
NMEA,$GLGSV,3,1,10,86,07,167,28,73,16,071,31,80,23,018,24,65,32,234,28*69,1510566855330
NMEA,$GLGSV,3,2,10,88,52,305,29,87,57,201,42,81,07,331,19,71,39,056,28*65,1510566855331
NMEA,$GLGSV,3,3,10,72,83,223,35,79,02,324,*66,1510566855332
NMEA,$GPGSA,A,3,01,08,10,11,14,17,22,31,32,,,,0.9,0.6,0.6*33,1510566855336
NMEA,$GPVTG,,T,,M,0.0,N,0.0,K,D*26,1510566855336
NMEA,$GPRMC,095416,A,5956.532676,N,03017.688954,E,0.0,,131117,8.4,E,D*30,1510566855336
NMEA,$GPGGA,095416,5956.532676,N,03017.688954,E,2,09,0.6,4.0,M,18.0,M,,*4B,1510566855336
Fix,gps,59.942211,30.294816,22.000000,0.000000,4.000000,1510566857000
Raw,154918716,0,,53.875119192525744,-1194602074409351168,,,,,4719,1,0.0,15,122074340700344,6,39.7,-191.33078002929688,0.1965000033378601,0,0.0,0.0,,,,,0,,1,,
Raw,154918717,0,,53.875119192525744,-1194602074409351168,,,,,4719,8,0.0,15,122074328802437,7,37.4,702.8496704101562,0.25850000977516174,0,0.0,0.0,,,,,0,,1,,
Raw,154918717,0,,53.875119192525744,-1194602074409351168,,,,,4719,10,0.0,15,122074330551960,27,24.3,644.4866333007812,0.6814999580383301,0,0.0,0.0,,,,,0,,1,,
Raw,154918718,0,,53.875119192525744,-1194602074409351168,,,,,4719,11,0.0,15,122074340286748,6,38.5,141.94004821777344,0.21649999916553497,0,0.0,0.0,,,,,0,,1,,
Raw,154918718,0,,53.875119192525744,-1194602074409351168,,,,,4719,14,0.0,15,122074338748491,9,35.2,-120.96968841552734,0.2985000014305115,0,0.0,0.0,,,,,0,,1,,
Raw,154918719,0,,53.875119192525744,-1194602074409351168,,,,,4719,17,0.0,15,122074329239279,11,33.7,-481.54766845703125,0.3199999928474426,0,0.0,0.0,,,,,0,,1,,
Raw,154918719,0,,53.875119192525744,-1194602074409351168,,,,,4719,22,0.0,15,122074337070212,7,37.5,-427.5137634277344,0.25200000405311584,0,0.0,0.0,,,,,0,,1,,
Raw,154918720,0,,53.875119192525744,-1194602074409351168,,,,,4719,31,0.0,15,122074326270938,12,32.3,-685.2665405273438,0.37549999356269836,0,0.0,0.0,,,,,0,,1,,
Raw,154918721,0,,53.875119192525744,-1194602074409351168,,,,,4719,32,0.0,15,122074338413514,12,32.4,162.7677001953125,0.3935000002384186,0,0.0,0.0,,,,,0,,1,,
NMEA,$GPGSV,4,1,13,01,63,271,40,08,15,201,37,10,19,081,24,11,58,232,39*73,1510566856330
NMEA,$GPGSV,4,2,13,14,57,123,35,17,19,323,34,22,47,248,38,31,03,133,32*70,1510566856331
NMEA,$GPGSV,4,3,13,32,54,085,32,03,24,254,,19,02,337,,24,09,016,*73,1510566856331
NMEA,$GPGSV,4,4,13,28,08,285,*46,1510566856331
NMEA,$GLGSV,3,1,10,86,07,167,29,73,16,071,31,80,23,018,23,65,32,234,28*6F,1510566856331
NMEA,$GLGSV,3,2,10,88,52,305,29,87,57,201,42,81,07,331,17,71,39,056,29*6A,1510566856331
NMEA,$GLGSV,3,3,10,72,83,223,35,79,02,324,*66,1510566856332
NMEA,$GPGSA,A,3,01,08,10,11,14,17,22,31,32,,,,1.0,0.7,0.7*3B,1510566856336
NMEA,$GPVTG,,T,,M,0.0,N,0.0,K,D*26,1510566856336
NMEA,$GPRMC,095417,A,5956.532673,N,03017.688949,E,0.0,,131117,8.4,E,D*38,1510566856336
NMEA,$GPGGA,095417,5956.532673,N,03017.688949,E,2,09,0.7,4.0,M,18.0,M,,*42,1510566856336
Fix,gps,59.942211,30.294816,22.000000,0.000000,3.000000,1510566858000
